{"cityintime": {    "website_url":"www.cityintime.hk",    "mobile_app_apple":"https://apps.apple.com/app/city-in-time/id1529072870",    "mobile_app_android":"https://play.google.com/store/apps/details?id=hk.edu.cityu.cityintime",    "items":[        {        "spot_num":"1",        "addr_eng":"Edinburgh Place",        "addr_tc":"愛丁堡廣場",        "addr_sc":"爱丁堡广场",        "latitude":"22.2831",        "longitude":"114.1609"        },        {        "spot_num":"2",        "addr_eng":"Chater Road (near the Mandarin Oriental Hong Kong)",        "addr_tc":"遮打道（近文華東方酒店）",        "addr_sc":"遮打道（近文华东方酒店）",        "latitude":"22.2817",        "longitude":"114.1596"        },        {        "spot_num":"3",        "addr_eng":"Des Voeux Road Central (near Chater Garden)",        "addr_tc":"德輔道中（近遮打花園）",        "addr_sc":"德辅道中（近遮打花园）",        "latitude":"22.2804",        "longitude":"114.1606"        },        {        "spot_num":"4",        "addr_eng":"Statue Square",        "addr_tc":"皇后像廣場",        "addr_sc":"皇后像广场",        "latitude":"22.2807",        "longitude":"114.16"        },        {        "spot_num":"5",        "addr_eng":"Pedder Street (near World-Wide House)",        "addr_tc":"畢打街（近環球大廈）",        "addr_sc":"毕打街（近环球大厦）",        "latitude":"22.2822",        "longitude":"114.1578"        },        {        "spot_num":"6",        "addr_eng":"Chater Garden",        "addr_tc":"遮打花園",        "addr_sc":"遮打花园",        "latitude":"22.2804",        "longitude":"114.1612"        },        {        "spot_num":"7",        "addr_eng":"Hollywood Road (near PMQ)",        "addr_tc":"荷李活道（近PMQ元創方）",        "addr_sc":"荷李活道（近PMQ元创方）",        "latitude":"22.2838",        "longitude":"114.1521"        },        {        "spot_num":"8",        "addr_eng":"Pottinger Street (near Tai Kwun)",        "addr_tc":"砵典乍街（近大館）",        "addr_sc":"砵典乍街（近大馆）",        "latitude":"22.2819",        "longitude":"114.1545"        },        {        "spot_num":"9",        "addr_eng":"Kowloon Park Drive (near the YMCA of Hong Kong)",        "addr_tc":"九龍公園徑（近香港基督教青年會）",        "addr_sc":"九龙公园径（近香港基督教青年会）",        "latitude":"22.2948",        "longitude":"114.1708"        },        {        "spot_num":"10",        "addr_eng":"Nathan Road (near the Sheraton Hong Kong Hotel & Towers)",        "addr_tc":"彌敦道（近香港喜來登酒店）",        "addr_sc":"弥敦道（近香港喜来登酒店）",        "latitude":"22.2949",        "longitude":"114.1725"        },        {        "spot_num":"11",        "addr_eng":"Salisbury Garden",        "addr_tc":"梳士巴利花園",        "addr_sc":"梳士巴利花园",        "latitude":"22.2945",        "longitude":"114.1723"        },        {        "spot_num":"12",        "addr_eng":"Salisbury Road (near the Hong Kong Cultural Centre)",        "addr_tc":"梳士巴利道（近香港文化中心）",        "addr_sc":"梳士巴利道（近香港文化中心）",        "latitude":"22.2945",        "longitude":"114.1709"        },        {        "spot_num":"13",        "addr_eng":"the Former Kowloon-Canton Railway Clock Tower",        "addr_tc":"前九廣鐵路鐘樓",        "addr_sc":"前九广铁路钟楼",        "latitude":"22.2939",        "longitude":"114.1694"        },        {        "spot_num":"14",        "addr_eng":"Tsim Sha Tsui Waterfront Promenade",        "addr_tc":"尖沙咀海濱長廊",        "addr_sc":"尖沙咀海滨长廊",        "latitude":"22.293",        "longitude":"114.1701"        },        {        "spot_num":"15",        "addr_eng":"Tai Po Road/Castle Peak Road Rest Garden (near YHA Mei Ho House Youth Hostel)",        "addr_tc":"大埔道／青山道休憩花園（近YHA美荷樓青年旅舍）",        "addr_sc":"大埔道／青山道休憩花园（近YHA美荷楼青年旅舍）",        "latitude":"22.3351",        "longitude":"114.1625"        },        {        "spot_num":"16",        "addr_eng":"Castle Peak Road (near Garden Centre)",        "addr_tc":"青山道（近嘉頓中心）",        "addr_sc":"青山道（近嘉顿中心）",        "latitude":"22.3339",        "longitude":"114.1629"        },        {        "spot_num":"17",        "addr_eng":"Tai Po Road (near the entrance of Sheung Li Uk Garden)",        "addr_tc":"大埔道（近上李屋花園入口）",        "addr_sc":"大埔道（近上李屋花园入口）",        "latitude":"22.3358",        "longitude":"114.1622"        },        {        "spot_num":"18",        "addr_eng":"Nam Cheong Street (near the entrance of Nam Cheong Street Rest Garden)",        "addr_tc":"南昌街（近南昌街休憩花園入口）",        "addr_sc":"南昌街（近南昌街休憩花园入口）",        "latitude":"22.329",        "longitude":"114.1631"        },        {        "spot_num":"19",        "addr_eng":"the junction of Lai Chi Kok Road and Shek Kip Mei Street",        "addr_tc":"荔枝角道（與石硤尾街交界）",        "addr_sc":"荔枝角道（与石硖尾街交界）",        "latitude":"22.3269",        "longitude":"114.1628"        },        {        "spot_num":"20",        "addr_eng":"Lai Chi Kok Road (near Lui Seng Chun)",        "addr_tc":"荔枝角道（近雷生春）",        "addr_sc":"荔枝角道（近雷生春）",        "latitude":"22.325",        "longitude":"114.1654"        },        {        "spot_num":"21",        "addr_eng":"Waterloo Road (near the Yau Ma Tei Wholesale Fruit Market)",        "addr_tc":"窩打老道（近油麻地果欄）",        "addr_sc":"窝打老道（近油麻地果栏）",        "latitude":"22.3129",        "longitude":"114.1696"        },        {        "spot_num":"22",        "addr_eng":"Public Square Street (near the Yau Ma Tei Reporting Centre)",        "addr_tc":"眾坊街（近油麻地報案中心）",        "addr_sc":"众坊街（近油麻地报案中心）",        "latitude":"22.3098",        "longitude":"114.1689"        },        {        "spot_num":"23",        "addr_eng":"Public Square Street (near the Tin Hau Temple)",        "addr_tc":"眾坊街（近天后廟）",        "addr_sc":"众坊街（近天后庙）",        "latitude":"22.31",        "longitude":"114.1695"        },        {        "spot_num":"24",        "addr_eng":"the junction of Nathan Road and Gascoigne Road",        "addr_tc":"彌敦道（與加士居道交界）",        "addr_sc":"弥敦道（与加士居道交界）",        "latitude":"22.3083",        "longitude":"114.1715"        },        {        "spot_num":"25",        "addr_eng":"Jordan Road (near the entrance of Temple Street)",        "addr_tc":"佐敦道（近廟街入口）",        "addr_sc":"佐敦道（近庙街入口）",        "latitude":"22.3056",        "longitude":"114.1696"        },        {        "spot_num":"26",        "addr_eng":"Canton Road (near the Xiqu Centre)",        "addr_tc":"廣東道（近戲曲中心）",        "addr_sc":"广东道（近戏曲中心）",        "latitude":"22.3028",        "longitude":"114.1675"        },        {        "spot_num":"27",        "addr_eng":"the Lions View Point Pavilion at the Peak",        "addr_tc":"山頂獅子亭",        "addr_sc":"山顶狮子亭",        "latitude":"22.271",        "longitude":"114.1507"        },        {        "spot_num":"28",        "addr_eng":"the Lions View Point Pavilion at the Peak",        "addr_tc":"山頂獅子亭",        "addr_sc":"山顶狮子亭",        "latitude":"22.271",        "longitude":"114.1507"        }    ]}}